%time,field.header.seq,field.header.stamp,field.header.frame_id,field.child_frame_id,field.pose.pose.position.x,field.pose.pose.position.y,field.pose.pose.position.z,field.pose.pose.orientation.x,field.pose.pose.orientation.y,field.pose.pose.orientation.z,field.pose.pose.orientation.w,field.pose.covariance0,field.pose.covariance1,field.pose.covariance2,field.pose.covariance3,field.pose.covariance4,field.pose.covariance5,field.pose.covariance6,field.pose.covariance7,field.pose.covariance8,field.pose.covariance9,field.pose.covariance10,field.pose.covariance11,field.pose.covariance12,field.pose.covariance13,field.pose.covariance14,field.pose.covariance15,field.pose.covariance16,field.pose.covariance17,field.pose.covariance18,field.pose.covariance19,field.pose.covariance20,field.pose.covariance21,field.pose.covariance22,field.pose.covariance23,field.pose.covariance24,field.pose.covariance25,field.pose.covariance26,field.pose.covariance27,field.pose.covariance28,field.pose.covariance29,field.pose.covariance30,field.pose.covariance31,field.pose.covariance32,field.pose.covariance33,field.pose.covariance34,field.pose.covariance35,field.twist.twist.linear.x,field.twist.twist.linear.y,field.twist.twist.linear.z,field.twist.twist.angular.x,field.twist.twist.angular.y,field.twist.twist.angular.z,field.twist.covariance0,field.twist.covariance1,field.twist.covariance2,field.twist.covariance3,field.twist.covariance4,field.twist.covariance5,field.twist.covariance6,field.twist.covariance7,field.twist.covariance8,field.twist.covariance9,field.twist.covariance10,field.twist.covariance11,field.twist.covariance12,field.twist.covariance13,field.twist.covariance14,field.twist.covariance15,field.twist.covariance16,field.twist.covariance17,field.twist.covariance18,field.twist.covariance19,field.twist.covariance20,field.twist.covariance21,field.twist.covariance22,field.twist.covariance23,field.twist.covariance24,field.twist.covariance25,field.twist.covariance26,field.twist.covariance27,field.twist.covariance28,field.twist.covariance29,field.twist.covariance30,field.twist.covariance31,field.twist.covariance32,field.twist.covariance33,field.twist.covariance34,field.twist.covariance35
1738186811190345061,0,1738186811183395871,odom,base_link,0.0,0.0,0.0,0.0,0.0,0.0,1.0,0.0,0.0,0.0,0.0,0.0,0.0,0.0,0.0,0.0,0.0,0.0,0.0,0.0,0.0,0.0,0.0,0.0,0.0,0.0,0.0,0.0,0.0,0.0,0.0,0.0,0.0,0.0,0.0,0.0,0.0,0.0,0.0,0.0,0.0,0.0,0.0,0.0,0.0,0.0,0.0,0.0,0.0,0.0,0.0,0.0,0.0,0.0,0.0,0.0,0.0,0.0,0.0,0.0,0.0,0.0,0.0,0.0,0.0,0.0,0.0,0.0,0.0,0.0,0.0,0.0,0.0,0.0,0.0,0.0,0.0,0.0,0.0,0.0,0.0,0.0,0.0,0.0,0.0
1738186811228508632,1,1738186811223731129,odom,base_link,0.0,0.0,0.0,0.0,0.0,0.0,1.0,0.010219750925898552,0.007978935725986958,-0.000859922613017261,-0.001039222115650773,0.00013820127060171217,-0.003106135642156005,0.007978935725986958,0.031183958053588867,0.0037071991246193647,-0.0025427185464650393,0.0017362367361783981,-0.009581103920936584,-0.0008599226712249219,0.0037071998231112957,0.06390471011400223,0.000434210553066805,0.02188694477081299,-0.00028593940078280866,-0.001039222115650773,-0.0025427183136343956,0.00043421052396297455,0.0016783463070169091,-0.00021369998285081238,0.0007574520423077047,0.0001382012851536274,0.0017362366197630763,0.021886946633458138,-0.00021369998285081238,0.007958470843732357,-0.00023416031035594642,-0.003106136107817292,-0.009581106714904308,-0.0002859394298866391,0.0007574521587230265,-0.00023416031035594642,0.003160392167046666,0.0,0.0,0.0,0.0,0.0,0.0,0.0,0.0,0.0,0.0,0.0,0.0,0.0,0.0,0.0,0.0,0.0,0.0,0.0,0.0,0.0,0.0,0.0,0.0,0.0,0.0,0.0,0.0,0.0,0.0,0.0,0.0,0.0,0.0,0.0,0.0,0.0,0.0,0.0,0.0,0.0,0.0
1738186811284338219,2,1738186811272034592,odom,base_link,0.0021913889892881296,0.0031885506003313316,0.0032537967719204197,-0.000963725919549297,0.001576220525343782,0.0010415904089240906,0.9999977509227846,0.010789149440824986,0.011223385110497475,0.0004146165738347918,-0.0011231857351958752,0.0005326057435013354,-0.0040079462341964245,0.011223385110497475,0.04173092916607857,0.002651012036949396,-0.002906219568103552,0.0012296055210754275,-0.012932824902236462,0.0004146165738347918,0.002651012036949396,0.07539942860603333,-5.443048576125875e-05,0.026432450860738754,0.0002263175992993638,-0.001123185851611197,-0.002906219568103552,-5.4430467571364716e-05,0.001697857165709138,-0.00031765352468937635,0.0008561783470213413,0.0005326056852936745,0.0012296055210754275,0.026432450860738754,-0.0003176534955855459,0.00972677767276764,-2.664961584741832e-07,-0.0040079462341964245,-0.012932824902236462,0.00022631758474744856,0.0008561784052290022,-2.664926057605044e-07,0.004222409799695015,0.0,0.0,0.0,0.0,0.0,0.0,0.0,0.0,0.0,0.0,0.0,0.0,0.0,0.0,0.0,0.0,0.0,0.0,0.0,0.0,0.0,0.0,0.0,0.0,0.0,0.0,0.0,0.0,0.0,0.0,0.0,0.0,0.0,0.0,0.0,0.0,0.0,0.0,0.0,0.0,0.0,0.0
1738186811382186980,3,1738186811373179250,odom,base_link,0.0027839969253910463,0.0043500431654066914,0.00030391283123595977,-0.0016746559632045336,0.0002848566055812455,0.004490924380419052,0.9999884729247276,0.010654659941792488,0.01134558580815792,0.0009275302290916443,-0.001189480535686016,0.0007884944207035005,-0.004089483991265297,0.01134558580815792,0.04390003904700279,0.005834890529513359,-0.003137382445856929,0.0025934467557817698,-0.01349808182567358,0.0009275300544686615,0.005834890529513359,0.07012517750263214,0.0007329244981519878,0.02422512136399746,-0.0009861820144578815,-0.001189480652101338,-0.003137382445856929,0.0007329246727749705,0.001772477524355054,-0.00012143783533247188,0.0009399309637956321,0.0007884943624958396,0.0025934469886124134,0.02422511763870716,-0.0001214378498843871,0.008845113217830658,-0.0005113323568366468,-0.00408948352560401,-0.013498080894351006,-0.0009861820144578815,0.000939931022003293,-0.0005113323568366468,0.004361934959888458,0.0,0.0,0.0,0.0,0.0,0.0,0.0,0.0,0.0,0.0,0.0,0.0,0.0,0.0,0.0,0.0,0.0,0.0,0.0,0.0,0.0,0.0,0.0,0.0,0.0,0.0,0.0,0.0,0.0,0.0,0.0,0.0,0.0,0.0,0.0,0.0,0.0,0.0,0.0,0.0,0.0,0.0
1738186811417088378,4,1738186811411052701,odom,base_link,0.00512966344640427,0.004861686727506997,0.001461101377633137,-0.002511175913889501,-0.0012663947652489483,0.005731192719221766,0.9999796216272826,0.011760557070374489,0.012250572443008423,-0.000746031932067126,-0.0012273124884814024,0.00020223493629600853,-0.00442005880177021,0.012250571511685848,0.044097766280174255,0.0017362413927912712,-0.0030989113729447126,0.0011279771570116282,-0.013597342185676098,-0.000746031932067126,0.0017362410435453057,0.07581403851509094,0.0004316401609685272,0.026081547141075134,0.0003595029702410102,-0.0012273126048967242,-0.0030989106744527817,0.0004316401027608663,0.0018079481087625027,-0.00022474124853033572,0.0009286415297538042,0.00020223493629600853,0.0011279770405963063,0.026081547141075134,-0.0002247412339784205,0.00946003943681717,-3.3856566005852073e-05,-0.004420058336108923,-0.013597340323030949,0.00035950294113717973,0.0009286415879614651,-3.3856566005852073e-05,0.004412400536239147,0.0,0.0,0.0,0.0,0.0,0.0,0.0,0.0,0.0,0.0,0.0,0.0,0.0,0.0,0.0,0.0,0.0,0.0,0.0,0.0,0.0,0.0,0.0,0.0,0.0,0.0,0.0,0.0,0.0,0.0,0.0,0.0,0.0,0.0,0.0,0.0,0.0,0.0,0.0,0.0,0.0,0.0
1738186811484236407,5,1738186811478922164,odom,base_link,0.00365006483438424,0.001750001687643566,-0.0014673085936864605,-0.004452006791056998,-0.0040143341502276155,0.008503977940538386,0.9999458720931097,0.014839896000921726,0.01754111610352993,-0.003312532790005207,-0.0013315891847014427,-0.0008416593773290515,-0.00612778402864933,0.01754111424088478,0.057536136358976364,-0.0023953537456691265,-0.003089392790570855,-0.0005805576220154762,-0.017797349020838737,-0.003312532790005207,-0.00239535397849977,0.08929890394210815,0.0004523032403085381,0.030453316867351532,0.0018592514097690582,-0.0013315890682861209,-0.0030893925577402115,0.00045230332762002945,0.0019325866596773267,-0.00020966307783965021,0.0009483668836764991,-0.0008416594355367124,-0.0005805576802231371,0.030453315004706383,-0.00020966307783965021,0.01090304460376501,0.000571756565477699,-0.0061277844943106174,-0.017797347158193588,0.0018592511769384146,0.0009483667672611773,0.0005717566818930209,0.005745157599449158,0.0,0.0,0.0,0.0,0.0,0.0,0.0,0.0,0.0,0.0,0.0,0.0,0.0,0.0,0.0,0.0,0.0,0.0,0.0,0.0,0.0,0.0,0.0,0.0,0.0,0.0,0.0,0.0,0.0,0.0,0.0,0.0,0.0,0.0,0.0,0.0,0.0,0.0,0.0,0.0,0.0,0.0
1738186811549378005,6,1738186811545224898,odom,base_link,0.0030535451223330156,0.00025783550940820625,-0.0022344771636957856,-0.006825199393560814,-0.004230057050607419,0.01057808270539681,0.9999118098296793,0.014912161976099014,0.017893683165311813,-0.003734598634764552,-0.001349041354842484,-0.0010246849851682782,-0.006177007220685482,0.017893681302666664,0.05901976674795151,-0.0012235336471349,-0.003101066453382373,-0.0001948043645825237,-0.018321121111512184,-0.0037345984019339085,-0.0012235335307195783,0.08877383172512054,0.00041936771594919264,0.030085552483797073,0.0013558901846408844,-0.0013490411220118403,-0.003101066453382373,0.0004193677450530231,0.0019013123819604516,-0.00017704933998174965,0.0009800258558243513,-0.0010246851015836,-0.00019480437913443893,0.030085550621151924,-0.00017704938363749534,0.010676861740648746,0.0003960388421546668,-0.006177006755024195,-0.018321122974157333,0.001355889835394919,0.0009800259722396731,0.0003960389003623277,0.0059072524309158325,0.0,0.0,0.0,0.0,0.0,0.0,0.0,0.0,0.0,0.0,0.0,0.0,0.0,0.0,0.0,0.0,0.0,0.0,0.0,0.0,0.0,0.0,0.0,0.0,0.0,0.0,0.0,0.0,0.0,0.0,0.0,0.0,0.0,0.0,0.0,0.0,0.0,0.0,0.0,0.0,0.0,0.0
1738186811612441390,7,1738186811607187810,odom,base_link,0.003912810203295872,0.001610862987843916,-0.0028100075725093175,-0.010282469621748173,-0.0029925224365669007,0.01308049841882041,0.9998570978840227,0.013627417385578156,0.016016410663723946,-8.444198465440422e-05,-0.0014503493439406157,0.0004451463755685836,-0.005539087112993002,0.016016412526369095,0.05865452066063881,0.0020481881219893694,-0.003742384724318981,0.0012327998410910368,-0.018003202974796295,-8.444193372270092e-05,0.0020481878891587257,0.08002759516239166,-0.00039459584513679147,0.02752167358994484,0.0002654748095665127,-0.0014503495767712593,-0.0037423844914883375,-0.0003945958742406219,0.002085884567350149,-0.0005364116514101624,0.0011180569417774677,0.0004451463173609227,0.0012327999575063586,0.02752167172729969,-0.0005364116514101624,0.010023167356848717,-6.490427040262148e-05,-0.005539087578654289,-0.018003202974796295,0.00026547478046268225,0.0011180569417774677,-6.490429950645193e-05,0.0057678259909152985,0.0,0.0,0.0,0.0,0.0,0.0,0.0,0.0,0.0,0.0,0.0,0.0,0.0,0.0,0.0,0.0,0.0,0.0,0.0,0.0,0.0,0.0,0.0,0.0,0.0,0.0,0.0,0.0,0.0,0.0,0.0,0.0,0.0,0.0,0.0,0.0,0.0,0.0,0.0,0.0,0.0,0.0
1738186811680139103,8,1738186811675211329,odom,base_link,0.0031116045662307732,0.0008505168771918499,-0.0015358406327801776,-0.013355454504987487,-0.0016999697905318043,0.012997330857586378,0.9998248903324298,0.013480603694915771,0.01566641591489315,-0.000558539992198348,-0.0013865161454305053,0.00019668368622660637,-0.005457327701151371,0.01566641591489315,0.0549333356320858,0.0012713700998574495,-0.003190093208104372,0.000794365769252181,-0.016906000673770905,-0.0005585399339906871,0.0012713702162727714,0.08081851154565811,8.572630031267181e-05,0.027605371549725533,0.0005732617573812604,-0.0013865160290151834,-0.0031900929752737284,8.572622027713805e-05,0.0019435664871707559,-0.00032642719452269375,0.0009669388527981937,0.00019668368622660637,0.0007943655364215374,0.027605371549725533,-0.00032642719452269375,0.009945185855031013,8.976158278528601e-05,-0.005457328166812658,-0.016906002536416054,0.0005732618155889213,0.0009669389692135155,8.976161188911647e-05,0.005432958714663982,0.0,0.0,0.0,0.0,0.0,0.0,0.0,0.0,0.0,0.0,0.0,0.0,0.0,0.0,0.0,0.0,0.0,0.0,0.0,0.0,0.0,0.0,0.0,0.0,0.0,0.0,0.0,0.0,0.0,0.0,0.0,0.0,0.0,0.0,0.0,0.0,0.0,0.0,0.0,0.0,0.0,0.0
1738186811753638214,9,1738186811745244895,odom,base_link,0.005578762545795875,0.007833591132971609,0.002498383595478158,-0.011639468667614044,-0.00144236948400216,0.010168647385711311,0.9998795132163438,0.014823922887444496,0.016829874366521835,-0.0023658357094973326,-0.0016169787850230932,-0.00024457022664137185,-0.005977422930300236,0.016829874366521835,0.05126946046948433,-0.001338400412350893,-0.003791235154494643,0.00027491210494190454,-0.0160119216889143,-0.002365835476666689,-0.0013384005287662148,0.08075382560491562,-0.00038839384797029197,0.027987409383058548,0.0013816343853250146,-0.0016169787850230932,-0.003791235387325287,-0.00038839384797029197,0.0020695608109235764,-0.0005705865332856774,0.001139483880251646,-0.00024457022664137185,0.0002749121922533959,0.027987409383058548,-0.0005705865332856774,0.010245271027088165,0.00025083497166633606,-0.0059774224646389484,-0.0160119216889143,0.0013816343853250146,0.0011394837638363242,0.0002508349425625056,0.005239170975983143,0.0,0.0,0.0,0.0,0.0,0.0,0.0,0.0,0.0,0.0,0.0,0.0,0.0,0.0,0.0,0.0,0.0,0.0,0.0,0.0,0.0,0.0,0.0,0.0,0.0,0.0,0.0,0.0,0.0,0.0,0.0,0.0,0.0,0.0,0.0,0.0,0.0,0.0,0.0,0.0,0.0,0.0
1738186811813314063,10,1738186811806942447,odom,base_link,0.004439153813818317,0.007763095199427354,0.000387513342327229,-0.004171503124483908,-0.003810201596757899,0.01026769420853791,0.9999313253324525,0.01378543023020029,0.016318053007125854,-0.001747181755490601,-0.0012340758694335818,-0.0002260629553347826,-0.005674440413713455,0.016318053007125854,0.05398467928171158,-0.0023403028026223183,-0.003235948970541358,-0.00037014478584751487,-0.016677111387252808,-0.001747181755490601,-0.0023403025697916746,0.08730140328407288,-0.00027439507539384067,0.030060118064284325,0.0015711060259491205,-0.0012340756366029382,-0.003235948970541358,-0.0002743950462900102,0.0018899795832112432,-0.00044004060328006744,0.0009648659033700824,-0.00022606296988669783,-0.0003701447567436844,0.030060114338994026,-0.00044004060328006744,0.010855437256395817,0.0004130500601604581,-0.005674440413713455,-0.01667710766196251,0.0015711057931184769,0.0009648659033700824,0.0004130500601604581,0.005377952475100756,0.0,0.0,0.0,0.0,0.0,0.0,0.0,0.0,0.0,0.0,0.0,0.0,0.0,0.0,0.0,0.0,0.0,0.0,0.0,0.0,0.0,0.0,0.0,0.0,0.0,0.0,0.0,0.0,0.0,0.0,0.0,0.0,0.0,0.0,0.0,0.0,0.0,0.0,0.0,0.0,0.0,0.0
1738186811878824858,11,1738186811873403598,odom,base_link,0.00321213521046683,0.006511045299687568,-0.0033581504152357393,0.002104658900799636,-0.006279935751434284,0.010819969172307558,0.9999195273045627,0.01601153425872326,0.01941969245672226,-0.0033966118935495615,-0.0013622049009427428,-0.0008668046211823821,-0.006740858778357506,0.019419696182012558,0.061833299696445465,-0.0018784382846206427,-0.0029293072875589132,-0.0003996268205810338,-0.019085289910435677,-0.003396611660718918,-0.0018784384010359645,0.09122586995363235,0.0002519475528970361,0.03092137537896633,0.0017182615119963884,-0.0013622049009427428,-0.002929307520389557,0.00025194723275490105,0.0019537489861249924,-0.00030526783666573465,0.0009052768000401556,-0.0008668046211823821,-0.0003996269078925252,0.030921386554837227,-0.0003052678075619042,0.01100598368793726,0.000521027366630733,-0.006740859244018793,-0.019085289910435677,0.0017182615119963884,0.0009052768000401556,0.000521027366630733,0.006132285576313734,0.0,0.0,0.0,0.0,0.0,0.0,0.0,0.0,0.0,0.0,0.0,0.0,0.0,0.0,0.0,0.0,0.0,0.0,0.0,0.0,0.0,0.0,0.0,0.0,0.0,0.0,0.0,0.0,0.0,0.0,0.0,0.0,0.0,0.0,0.0,0.0,0.0,0.0,0.0,0.0,0.0,0.0
1738186811957085823,12,1738186811944672912,odom,base_link,0.003044144041894883,0.003672845305373426,-0.004186835031064647,0.002327836486526375,-0.006179392381710142,0.00925435978285473,0.9999353744678178,0.011562317609786987,0.01102515123784542,0.00027597116422839463,-0.0010055291932076216,0.00038596143713220954,-0.004029730800539255,0.011025152169167995,0.0428672656416893,0.006685229018330574,-0.002084578387439251,0.0025323040317744017,-0.012839756906032562,0.00027597116422839463,0.006685229018330574,0.0704566016793251,0.00012601350317709148,0.023988334462046623,-0.00111624994315207,-0.0010055291932076216,-0.002084578387439251,0.00012601344496943057,0.0017507836455479264,-0.00035415595630183816,0.0006303592817857862,0.00038596143713220954,0.0025323035661131144,0.023988334462046623,-0.0003541559854056686,0.008681589737534523,-0.0004458576440811157,-0.004029730334877968,-0.012839757837355137,-0.0011162501759827137,0.0006303592235781252,-0.0004458576731849462,0.004071760457009077,0.0,0.0,0.0,0.0,0.0,0.0,0.0,0.0,0.0,0.0,0.0,0.0,0.0,0.0,0.0,0.0,0.0,0.0,0.0,0.0,0.0,0.0,0.0,0.0,0.0,0.0,0.0,0.0,0.0,0.0,0.0,0.0,0.0,0.0,0.0,0.0,0.0,0.0,0.0,0.0,0.0,0.0
1738186812013847738,13,1738186812006962188,odom,base_link,0.0038506461153127104,0.0024186379911726678,-0.0038598821328361763,-0.0018708661031655216,-0.003911037629323596,0.0073930940295561616,0.9999632722282138,0.010210360400378704,0.011418723501265049,0.00034381545265205204,-0.001085496973246336,0.0005018070805817842,-0.0039966292679309845,0.011418722569942474,0.04226209968328476,0.001997485524043441,-0.0030315930489450693,0.0011202567256987095,-0.013063808903098106,0.0003438154235482216,0.001997485524043441,0.07005512714385986,-0.0006478661089204252,0.02468748204410076,0.00018506628111936152,-0.0010854968568310142,-0.003031592583283782,-0.0006478661089204252,0.0017197014531120658,-0.0005323833902366459,0.0008867325959727168,0.0005018070223741233,0.0011202568421140313,0.02468748204410076,-0.0005323833902366459,0.009158294647932053,-5.2683099056594074e-05,-0.00399662833660841,-0.013063808903098106,0.00018506629567127675,0.0008867325959727168,-5.268310633255169e-05,0.004237119108438492,0.0,0.0,0.0,0.0,0.0,0.0,0.0,0.0,0.0,0.0,0.0,0.0,0.0,0.0,0.0,0.0,0.0,0.0,0.0,0.0,0.0,0.0,0.0,0.0,0.0,0.0,0.0,0.0,0.0,0.0,0.0,0.0,0.0,0.0,0.0,0.0,0.0,0.0,0.0,0.0,0.0,0.0
1738186812080914978,14,1738186812073732568,odom,base_link,0.0027026279606421227,0.002976580732060612,-0.0021807355667395265,-0.005123755997738766,-0.0019503606587821267,0.006735530020222815,0.9999622872154347,0.012690850533545017,0.013385116122663021,-0.002549300901591778,-0.001062840805388987,-0.0006434028618969023,-0.004817360546439886,0.013385116122663021,0.047359369695186615,0.00263504171743989,-0.0023970133624970913,0.0010708903428167105,-0.01455454621464014,-0.002549300668761134,0.00263504171743989,0.0821746289730072,0.0005817419732920825,0.028182625770568848,0.00034006661735475063,-0.001062840805388987,-0.0023970133624970913,0.0005817419732920825,0.0016910191625356674,-0.00013431701518129557,0.0007382635376416147,-0.0006434028036892414,0.0010708903428167105,0.0281826239079237,-0.00013431700062938035,0.01014246791601181,7.680988346692175e-05,-0.004817361012101173,-0.014554545283317566,0.00034006653004325926,0.0007382635376416147,7.680986891500652e-05,0.004704849794507027,0.0,0.0,0.0,0.0,0.0,0.0,0.0,0.0,0.0,0.0,0.0,0.0,0.0,0.0,0.0,0.0,0.0,0.0,0.0,0.0,0.0,0.0,0.0,0.0,0.0,0.0,0.0,0.0,0.0,0.0,0.0,0.0,0.0,0.0,0.0,0.0,0.0,0.0,0.0,0.0,0.0,0.0
1738186812167285580,15,1738186812145869477,odom,base_link,0.003704258518323294,0.007155196724841436,-0.004551653609925271,-0.004328246024580105,-0.002319463911697824,0.006869717806713282,0.9999643460397825,0.011504622176289558,0.011206906288862228,-0.0005274967988952994,-0.001251415116712451,0.00035908527206629515,-0.004118519369512796,0.011206905357539654,0.04018319398164749,0.003438166342675686,-0.0032582778949290514,0.0018495193216949701,-0.012436110526323318,-0.0005274969153106213,0.003438165644183755,0.07163047045469284,0.00016487899119965732,0.02500796504318714,-0.00019101801444776356,-0.0012514148838818073,-0.0032582776620984077,0.000164879034855403,0.0018679988570511341,-0.0003326463920529932,0.0009615008602850139,0.0003590853011701256,0.001849519438110292,0.02500797063112259,-0.0003326463920529932,0.00922494474798441,-0.00026244285982102156,-0.004118518903851509,-0.012436109595000744,-0.00019101807265542448,0.0009615008602850139,-0.0002624428307171911,0.004071487579494715,0.0,0.0,0.0,0.0,0.0,0.0,0.0,0.0,0.0,0.0,0.0,0.0,0.0,0.0,0.0,0.0,0.0,0.0,0.0,0.0,0.0,0.0,0.0,0.0,0.0,0.0,0.0,0.0,0.0,0.0,0.0,0.0,0.0,0.0,0.0,0.0,0.0,0.0,0.0,0.0,0.0,0.0
1738186812213420548,16,1738186812207768523,odom,base_link,0.002950118879640656,0.0027397607248942366,-0.005925870263820974,-0.0002700258351804055,-0.002185557196866859,0.008531412403204519,0.9999611819606773,0.01268625445663929,0.013189315795898438,-0.0016449160175397992,-0.0012891939841210842,-0.00022093862935435027,-0.004781947936862707,0.013189316727221012,0.04658280685544014,0.003545137122273445,-0.0030189305543899536,0.0015661321813240647,-0.014431414194405079,-0.001644916133955121,0.003545136656612158,0.0814245194196701,0.0004483030643314123,0.02803247980773449,3.6040986742591485e-05,-0.001289194100536406,-0.00301893032155931,0.0004483030643314123,0.0018377465894445777,-0.00017456991190556437,0.0009239360806532204,-0.00022093865845818073,0.0015661321813240647,0.02803247980773449,-0.0001745699264574796,0.010120273567736149,-8.402790263062343e-05,-0.0047819484025239944,-0.014431413263082504,3.604096855269745e-05,0.0009239359642378986,-8.402790263062343e-05,0.004701501224189997,0.0,0.0,0.0,0.0,0.0,0.0,0.0,0.0,0.0,0.0,0.0,0.0,0.0,0.0,0.0,0.0,0.0,0.0,0.0,0.0,0.0,0.0,0.0,0.0,0.0,0.0,0.0,0.0,0.0,0.0,0.0,0.0,0.0,0.0,0.0,0.0,0.0,0.0,0.0,0.0,0.0,0.0
1738186812282995341,17,1738186812276511505,odom,base_link,0.0031066150313666207,0.004801420769998146,-0.003191839096899515,0.0037772848530389447,-0.0004461854762073382,0.008805080609849825,0.9999540007385913,0.010645667091012001,0.012326505966484547,-0.0003737359365914017,-0.001005215453915298,0.00019323326705489308,-0.0042571271769702435,0.012326506897807121,0.04493654519319534,0.001787969726137817,-0.002721244702115655,0.0009240774670615792,-0.013811936601996422,-0.00037373590748757124,0.0017879698425531387,0.07198723405599594,-0.00041282709571532905,0.025163112208247185,0.00031547059188596904,-0.0010052153374999762,-0.0027212444692850113,-0.0004128270084038377,0.001671999809332192,-0.000446478312369436,0.0007978550856932998,0.00019323323795106262,0.0009240775252692401,0.025163108482956886,-0.000446478312369436,0.00924618262797594,3.193739030393772e-05,-0.0042571271769702435,-0.013811936601996422,0.0003154705627821386,0.0007978550856932998,3.193739030393772e-05,0.004444892052561045,0.0,0.0,0.0,0.0,0.0,0.0,0.0,0.0,0.0,0.0,0.0,0.0,0.0,0.0,0.0,0.0,0.0,0.0,0.0,0.0,0.0,0.0,0.0,0.0,0.0,0.0,0.0,0.0,0.0,0.0,0.0,0.0,0.0,0.0,0.0,0.0,0.0,0.0,0.0,0.0,0.0,0.0
1738186812409738172,18,1738186812352677340,odom,base_link,0.001134018605220233,0.003676163539580139,-0.006964347774939839,0.0063359927221211055,0.0017488205609172136,0.00830865053368128,0.9999438799998632,0.011820808053016663,0.013027678243815899,0.0007312584784813225,-0.0012818616814911366,0.0007304474711418152,-0.004573657177388668,0.013027679175138474,0.0486975722014904,0.003827905049547553,-0.003651273902505636,0.0019647700246423483,-0.015001429244875908,0.0007312585948966444,0.0038279045838862658,0.07822978496551514,-0.0008064392604865134,0.0275266133248806,-0.00035731508978642523,-0.0012818615650758147,-0.00365127413533628,-0.0008064392022788525,0.0019780565053224564,-0.0006468757055699825,0.0010702578583732247,0.0007304474711418152,0.0019647700246423483,0.02752661518752575,-0.0006468757055699825,0.010210749693214893,-0.0003047743230126798,-0.004573657177388668,-0.015001431107521057,-0.00035731508978642523,0.0010702575091272593,-0.0003047743230126798,0.0048485067673027515,0.0,0.0,0.0,0.0,0.0,0.0,0.0,0.0,0.0,0.0,0.0,0.0,0.0,0.0,0.0,0.0,0.0,0.0,0.0,0.0,0.0,0.0,0.0,0.0,0.0,0.0,0.0,0.0,0.0,0.0,0.0,0.0,0.0,0.0,0.0,0.0,0.0,0.0,0.0,0.0,0.0,0.0
1738186812457145710,19,1738186812447806565,odom,base_link,0.0024105728221285126,0.000538674765181615,-0.014255310460206724,0.008289003844593633,0.0038491907097607833,0.006697726608055243,0.9999358062417951,0.012858443893492222,0.01563447155058384,-0.0011117776157334447,-0.0010901899076998234,-0.00010906051466008648,-0.00541005190461874,0.01563447341322899,0.05740026757121086,0.0007565264240838587,-0.0029400407802313566,0.0005790723953396082,-0.017602568492293358,-0.0011117770336568356,0.0007565265987068415,0.0875694677233696,0.00012616919411811978,0.030197640880942345,0.0006846452015452087,-0.0010901897912845016,-0.002940040547400713,0.000126169208670035,0.001852027839049697,-0.00031806930201128125,0.0008805144461803138,-0.00010906049283221364,0.0005790723953396082,0.030197639018297195,-0.0003180692729074508,0.01092181634157896,0.0001526092819403857,-0.005410051438957453,-0.01760256476700306,0.0006846452597528696,0.0008805144461803138,0.00015260929649230093,0.0056265173479914665,0.0,0.0,0.0,0.0,0.0,0.0,0.0,0.0,0.0,0.0,0.0,0.0,0.0,0.0,0.0,0.0,0.0,0.0,0.0,0.0,0.0,0.0,0.0,0.0,0.0,0.0,0.0,0.0,0.0,0.0,0.0,0.0,0.0,0.0,0.0,0.0,0.0,0.0,0.0,0.0,0.0,0.0
1738186812483840804,20,1738186812477063541,odom,base_link,0.0029330076958895323,0.002814812065718201,-0.010174236432380732,0.00757915955245748,0.005025856826408878,0.006215465196508544,0.9999393307076337,0.013104882091283798,0.013579754158854485,0.0002294318692293018,-0.0010577421635389328,0.00042958787526004016,-0.004760283976793289,0.013579754158854485,0.04976792261004448,0.002212155144661665,-0.002878486644476652,0.0010894563747569919,-0.015269745141267776,0.0002294316072948277,0.0022121549118310213,0.07583055645227432,-0.0006805870216339827,0.02637632191181183,0.0001059491842170246,-0.0010577421635389328,-0.002878486178815365,-0.0006805870216339827,0.0020135242957621813,-0.0005911735934205353,0.0008320714696310461,0.00042958781705237925,0.0010894563747569919,0.02637632004916668,-0.0005911735934205353,0.00970823597162962,-4.560330853564665e-05,-0.004760283976793289,-0.015269745141267776,0.00010594917694106698,0.0008320713532157242,-4.560330125968903e-05,0.004928034730255604,0.0,0.0,0.0,0.0,0.0,0.0,0.0,0.0,0.0,0.0,0.0,0.0,0.0,0.0,0.0,0.0,0.0,0.0,0.0,0.0,0.0,0.0,0.0,0.0,0.0,0.0,0.0,0.0,0.0,0.0,0.0,0.0,0.0,0.0,0.0,0.0,0.0,0.0,0.0,0.0,0.0,0.0
1738186812569057467,21,1738186812544320473,odom,base_link,0.000955192190946968,0.001937967607550434,-0.013946285003087817,0.004971542918885003,0.006752788771963001,0.005207392573731175,0.9999512821469808,0.01293635182082653,0.01504356786608696,0.0003886248741764575,-0.0013563077664002776,0.0006969281239435077,-0.005332070868462324,0.01504356600344181,0.05229717493057251,0.0020042932592332363,-0.0034948221873492002,0.0014498889213427901,-0.016100389882922173,0.00038862478686496615,0.0020042932592332363,0.08444153517484665,-0.0001202046187245287,0.029870837926864624,0.0003544166684150696,-0.0013563077664002776,-0.0034948226530104876,-0.00012020464782835916,0.0019616626668721437,-0.0005032448098063469,0.0010229080216959119,0.0006969281239435077,0.0014498889213427901,0.029870837926864624,-0.0005032448098063469,0.011135359294712543,-9.201097418554127e-05,-0.005332070402801037,-0.016100388020277023,0.0003544166684150696,0.0010229080216959119,-9.201097418554127e-05,0.005200622137635946,0.0,0.0,0.0,0.0,0.0,0.0,0.0,0.0,0.0,0.0,0.0,0.0,0.0,0.0,0.0,0.0,0.0,0.0,0.0,0.0,0.0,0.0,0.0,0.0,0.0,0.0,0.0,0.0,0.0,0.0,0.0,0.0,0.0,0.0,0.0,0.0,0.0,0.0,0.0,0.0,0.0,0.0
1738186812610793078,22,1738186812605544291,odom,base_link,-0.0009171342308105066,-0.0077838457257232065,-0.01799780838685466,0.0023737669520369356,0.009020109970328868,0.005341376834371658,0.9999422346016267,0.015965254977345467,0.01973745785653591,0.0005510322516784072,-0.0014735179720446467,0.0006544074276462197,-0.006853142287582159,0.01973745971918106,0.06457462161779404,0.0034392978996038437,-0.003579258220270276,0.0017917170189321041,-0.019745228812098503,0.0005510323098860681,0.0034392976667732,0.1058303713798523,0.0008217491558752954,0.03641948103904724,0.00010750419460237026,-0.0014735180884599686,-0.0035792584531009197,0.0008217490976676345,0.0020901854149997234,-0.00020825883257202804,0.001053114770911634,0.0006544074858538806,0.0017917169025167823,0.03641948476433754,-0.0002082588180201128,0.013116627931594849,-0.0001330830855295062,-0.006853142753243446,-0.019745228812098503,0.00010750418732641265,0.0010531146544963121,-0.0001330830855295062,0.006295087281614542,0.0,0.0,0.0,0.0,0.0,0.0,0.0,0.0,0.0,0.0,0.0,0.0,0.0,0.0,0.0,0.0,0.0,0.0,0.0,0.0,0.0,0.0,0.0,0.0,0.0,0.0,0.0,0.0,0.0,0.0,0.0,0.0,0.0,0.0,0.0,0.0,0.0,0.0,0.0,0.0,0.0,0.0
1738186812681020119,23,1738186812675597266,odom,base_link,0.004005517128026763,0.00030471506682359754,-0.015618132418312775,0.003102078837417847,0.01207015446643824,0.002818836722675216,0.9999183679868945,0.015023903921246529,0.01800149492919445,0.0010542272357270122,-0.0011368810664862394,0.0006859574932605028,-0.006141083315014839,0.0180014930665493,0.059176936745643616,0.0016142765525728464,-0.0028317496180534363,0.000954915420152247,-0.017988823354244232,0.0010542275849729776,0.0016142764361575246,0.0805947408080101,-0.0010806388454511762,0.028050538152456284,0.00016887534002307802,-0.001136881299316883,-0.00283174985088408,-0.001080638961866498,0.00204952503554523,-0.0007843550411053002,0.0008098474936559796,0.0006859575514681637,0.000954915420152247,0.028050536289811134,-0.0007843550411053002,0.010337707586586475,-4.7804322093725204e-05,-0.006141083315014839,-0.017988823354244232,0.00016887531091924757,0.0008098474354483187,-4.7804322093725204e-05,0.005712421610951424,0.0,0.0,0.0,0.0,0.0,0.0,0.0,0.0,0.0,0.0,0.0,0.0,0.0,0.0,0.0,0.0,0.0,0.0,0.0,0.0,0.0,0.0,0.0,0.0,0.0,0.0,0.0,0.0,0.0,0.0,0.0,0.0,0.0,0.0,0.0,0.0,0.0,0.0,0.0,0.0,0.0,0.0
1738186812769601585,24,1738186812743948600,odom,base_link,0.0028679131997404856,-0.0020320724580314025,-0.019730651723340674,0.0042648344253546615,0.013826725804420265,0.003107361144037469,0.9998904825767546,0.014262121170759201,0.015123016200959682,0.0015182384522631764,-0.0013474664883688092,0.0010724981548264623,-0.0053614117205142975,0.015123012475669384,0.049323227256536484,0.0026959097012877464,-0.0033109879586845636,0.0016588669968768954,-0.015013677068054676,0.0015182385686784983,0.00269590993411839,0.07508675754070282,-0.0005309672560542822,0.026120122522115707,-8.135498501360416e-05,-0.0013474664883688092,-0.0033109881915152073,-0.0005309672560542822,0.002079615369439125,-0.0006742757395841181,0.0009324306738562882,0.0010724981548264623,0.0016588669968768954,0.026120124384760857,-0.0006742756813764572,0.009690698236227036,-0.00023309541575144976,-0.0053614117205142975,-0.015013676136732101,-8.135497773764655e-05,0.0009324308484792709,-0.00023309544485528022,0.004823278170078993,0.0,0.0,0.0,0.0,0.0,0.0,0.0,0.0,0.0,0.0,0.0,0.0,0.0,0.0,0.0,0.0,0.0,0.0,0.0,0.0,0.0,0.0,0.0,0.0,0.0,0.0,0.0,0.0,0.0,0.0,0.0,0.0,0.0,0.0,0.0,0.0,0.0,0.0,0.0,0.0,0.0,0.0
1738186812813193447,25,1738186812807150287,odom,base_link,0.0020216986325456913,-0.004511658414230122,-0.03139100138664827,0.003754864479962654,0.015151873698945495,0.006105538144169703,0.9998595121916476,0.013234065845608711,0.015307179652154446,-0.0001985510316444561,-0.0013522874796763062,0.00030883794534020126,-0.0053542498499155045,0.015307175926864147,0.05334183946251869,0.0022512096911668777,-0.0033778692595660686,0.001275159534998238,-0.016503531485795975,-0.0001985514536499977,0.002251209458336234,0.07805085927248001,-0.00017800505156628788,0.027278462424874306,0.00019618224177975208,-0.0013522874796763062,-0.003377869026735425,-0.00017800505156628788,0.0020182530861347914,-0.00043043747427873313,0.0009995346190407872,0.00030883794534020126,0.00127515965141356,0.027278462424874306,-0.0004304375033825636,0.01006372831761837,-6.86312050675042e-05,-0.005354249384254217,-0.016503533348441124,0.00019618222722783685,0.000999534735456109,-6.86312050675042e-05,0.005342569202184677,0.0,0.0,0.0,0.0,0.0,0.0,0.0,0.0,0.0,0.0,0.0,0.0,0.0,0.0,0.0,0.0,0.0,0.0,0.0,0.0,0.0,0.0,0.0,0.0,0.0,0.0,0.0,0.0,0.0,0.0,0.0,0.0,0.0,0.0,0.0,0.0,0.0,0.0,0.0,0.0,0.0,0.0
1738186812879399641,26,1738186812873492766,odom,base_link,0.0021283934680847087,-0.005698841100468229,-0.036809329990603656,0.0013381980747549226,0.021267119349919643,0.009338377809689621,0.9997293201463852,0.015171012841165066,0.018682990223169327,0.0011941795237362385,-0.0014556533424183726,0.0009728809236548841,-0.006468506995588541,0.01868298649787903,0.06153729930520058,0.0011200475273653865,-0.003683290211483836,0.0011964106233790517,-0.01879044622182846,0.0011941790580749512,0.001120047178119421,0.08117546141147614,-0.0003423917223699391,0.028365693986415863,0.0004213904612697661,-0.0014556533424183726,-0.00368329044431448,-0.0003423917223699391,0.0020599858835339546,-0.0005953751970082521,0.0010507797123864293,0.0009728809236548841,0.0011964106233790517,0.028365695849061012,-0.0005953751388005912,0.010476004332304,-8.842923125484958e-05,-0.006468507461249828,-0.01879044622182846,0.0004213905776850879,0.0010507797123864293,-8.84292385308072e-05,0.005984676536172628,0.0,0.0,0.0,0.0,0.0,0.0,0.0,0.0,0.0,0.0,0.0,0.0,0.0,0.0,0.0,0.0,0.0,0.0,0.0,0.0,0.0,0.0,0.0,0.0,0.0,0.0,0.0,0.0,0.0,0.0,0.0,0.0,0.0,0.0,0.0,0.0,0.0,0.0,0.0,0.0,0.0,0.0
1738186812967045613,27,1738186812943406931,odom,base_link,0.0013289738504951038,-0.008757465161720393,-0.041745161553725325,-7.35739839654487e-05,0.030383134054546918,0.012836344959393875,0.9994558959753936,0.017355166375637054,0.021922718733549118,0.003951472230255604,-0.0013140329392626882,0.0017773722065612674,-0.007501790300011635,0.02192271687090397,0.06930205225944519,0.002980324439704418,-0.003241811180487275,0.0016168487491086125,-0.021094463765621185,0.003951470833271742,0.0029803242068737745,0.1095813661813736,-0.0010282963048666716,0.0384797602891922,1.8178212485508993e-05,-0.0013140331720933318,-0.003241811180487275,-0.0010282963048666716,0.0020884559489786625,-0.0008501388947479427,0.0008782728691585362,0.0017773723229765892,0.0016168486326932907,0.0384797528386116,-0.0008501388365402818,0.014106247574090958,-0.00014498863311018795,-0.007501791696995497,-0.021094465628266335,1.8178336176788434e-05,0.0008782728691585362,-0.00014498863311018795,0.0066839586943387985,0.0,0.0,0.0,0.0,0.0,0.0,0.0,0.0,0.0,0.0,0.0,0.0,0.0,0.0,0.0,0.0,0.0,0.0,0.0,0.0,0.0,0.0,0.0,0.0,0.0,0.0,0.0,0.0,0.0,0.0,0.0,0.0,0.0,0.0,0.0,0.0,0.0,0.0,0.0,0.0,0.0,0.0
1738186813013410926,28,1738186813008295917,odom,base_link,0.004988676865855508,-0.003522069928812887,-0.04882346666595199,-0.0013460810584877466,0.03913978643703876,0.015235996422092992,0.9991166746664146,0.016655921936035156,0.021946940571069717,0.004243467468768358,-0.0014693473931401968,0.0018680475186556578,-0.007315450813621283,0.021946938708424568,0.07380957901477814,0.0036595817655324936,-0.0035652469377964735,0.0017800560453906655,-0.02252204902470112,0.0042434693314135075,0.0036595812998712063,0.09983351826667786,-0.0015870408387854695,0.0352063924074173,-0.00021360933897085488,-0.001469347276724875,-0.0035652469377964735,-0.0015870407223701477,0.002379821380600333,-0.0010254749795421958,0.000959166616667062,0.0018680475186556578,0.0017800561618059874,0.0352063924074173,-0.001025474863126874,0.013027671724557877,-0.00020045493147335947,-0.007315449882298708,-0.022522050887346268,-0.00021360932441893965,0.0009591665002517402,-0.00020045493147335947,0.007128228433430195,0.0,0.0,0.0,0.0,0.0,0.0,0.0,0.0,0.0,0.0,0.0,0.0,0.0,0.0,0.0,0.0,0.0,0.0,0.0,0.0,0.0,0.0,0.0,0.0,0.0,0.0,0.0,0.0,0.0,0.0,0.0,0.0,0.0,0.0,0.0,0.0,0.0,0.0,0.0,0.0,0.0,0.0
1738186813082007955,29,1738186813075821550,odom,base_link,0.006903823082019261,-0.0073215250112775455,-0.052130795897791286,-0.001502160680154708,0.0453128525911853,0.020718657541243232,0.9987568403435495,0.015096227638423443,0.015591669827699661,0.0024249402340501547,-0.0012064030161127448,0.001025306060910225,-0.005287915468215942,0.015591669827699661,0.056208353489637375,0.004347119014710188,-0.002796677639707923,0.00169517588801682,-0.017063384875655174,0.0024249402340501547,0.004347118083387613,0.08796005696058273,-0.002561944304034114,0.030635802075266838,-0.00044134503696113825,-0.001206402899697423,-0.0027966778725385666,-0.0025619440712034702,0.002404735656455159,-0.0012321460526436567,0.000729361898265779,0.001025306060910225,0.0016951761208474636,0.03063579834997654,-0.0012321460526436567,0.011216512881219387,-0.0001886365353129804,-0.00528791593387723,-0.017063383013010025,-0.0004413449205458164,0.000729361898265779,-0.0001886365353129804,0.005435388069599867,0.0,0.0,0.0,0.0,0.0,0.0,0.0,0.0,0.0,0.0,0.0,0.0,0.0,0.0,0.0,0.0,0.0,0.0,0.0,0.0,0.0,0.0,0.0,0.0,0.0,0.0,0.0,0.0,0.0,0.0,0.0,0.0,0.0,0.0,0.0,0.0,0.0,0.0,0.0,0.0,0.0,0.0
1738186813164277086,30,1738186813145129961,odom,base_link,0.008594509147928663,-0.0050128258522479765,-0.05792810976805249,-0.0035308899926196798,0.04964458261315817,0.025093207323614645,0.9984454312476174,0.017479397356510162,0.019358957186341286,0.0068915835581719875,-0.0016287401085719466,0.0027961721643805504,-0.00647278456017375,0.019358957186341286,0.0708329901099205,0.010855580680072308,-0.003989957273006439,0.004222271963953972,-0.02174881100654602,0.006891582626849413,0.010855579748749733,0.11637052893638611,-0.0025797171983867884,0.041061293333768845,-0.002196775283664465,-0.0016287401085719466,-0.003989956807345152,-0.0025797171983867884,0.00274042715318501,-0.001338766422122717,0.001042988384142518,0.0027961719315499067,0.004222272429615259,0.04106130078434944,-0.001338766422122717,0.015090428292751312,-0.0008665811619721353,-0.0064727854914963245,-0.021748807281255722,-0.002196775283664465,0.001042988384142518,-0.0008665812201797962,0.0069574820809066296,0.0,0.0,0.0,0.0,0.0,0.0,0.0,0.0,0.0,0.0,0.0,0.0,0.0,0.0,0.0,0.0,0.0,0.0,0.0,0.0,0.0,0.0,0.0,0.0,0.0,0.0,0.0,0.0,0.0,0.0,0.0,0.0,0.0,0.0,0.0,0.0,0.0,0.0,0.0,0.0,0.0,0.0
1738186813217125183,31,1738186813211660657,odom,base_link,0.013201655943109998,-0.004202364308292725,-0.06488156585151497,-0.006195461442297236,0.05774015856983687,0.029737988473575335,0.9978694014686461,0.016094520688056946,0.017523517832159996,0.007163363508880138,-0.0016422896878793836,0.002929637674242258,-0.005957732442766428,0.017523521557450294,0.06937360018491745,0.01580258086323738,-0.004237085115164518,0.0061091468669474125,-0.02096725068986416,0.007163362577557564,0.01580258086323738,0.10593605786561966,-0.001719452440738678,0.037209220230579376,-0.0037449938245117664,-0.0016422896878793836,-0.004237085115164518,-0.0017194525571539998,0.002724006539210677,-0.0010927249677479267,0.001114346319809556,0.002929636975750327,0.0061091468669474125,0.037209223955869675,-0.0010927248513326049,0.013714594766497612,-0.0014579604612663388,-0.005957732908427715,-0.02096725068986416,-0.0037449938245117664,0.0011143462033942342,-0.001457960344851017,0.006626634858548641,0.0,0.0,0.0,0.0,0.0,0.0,0.0,0.0,0.0,0.0,0.0,0.0,0.0,0.0,0.0,0.0,0.0,0.0,0.0,0.0,0.0,0.0,0.0,0.0,0.0,0.0,0.0,0.0,0.0,0.0,0.0,0.0,0.0,0.0,0.0,0.0,0.0,0.0,0.0,0.0,0.0,0.0
1738186813279290270,32,1738186813274064820,odom,base_link,0.011255423610527403,-0.014227856725052753,-0.07311461004433961,-0.008738038895059341,0.0623897433036025,0.033983516145127374,0.997434853630649,0.016563160344958305,0.015577396377921104,0.006415951065719128,-0.0020042911637574434,0.0030333413742482662,-0.005575326271355152,0.015577398240566254,0.05391230806708336,0.010931435041129589,-0.005271886009722948,0.005071484018117189,-0.01674925535917282,0.006415951065719128,0.010931435041129589,0.1180112361907959,-0.0032050027512013912,0.043148986995220184,-0.0022578963544219732,-0.002004291396588087,-0.005271885544061661,-0.003205002285540104,0.003165454138070345,-0.0017539828550070524,0.0013749347999691963,0.0030333413742482662,0.005071485415101051,0.043148983269929886,-0.0017539828550070524,0.016485320404171944,-0.0011372498702257872,-0.0055753267370164394,-0.016749251633882523,-0.0022578963544219732,0.0013749347999691963,-0.0011372498702257872,0.005516666918992996,0.0,0.0,0.0,0.0,0.0,0.0,0.0,0.0,0.0,0.0,0.0,0.0,0.0,0.0,0.0,0.0,0.0,0.0,0.0,0.0,0.0,0.0,0.0,0.0,0.0,0.0,0.0,0.0,0.0,0.0,0.0,0.0,0.0,0.0,0.0,0.0,0.0,0.0,0.0,0.0,0.0,0.0
1738186813387936124,33,1738186813351542385,odom,base_link,0.011248633827436549,-0.014200200322523419,-0.07690903390959858,-0.011374195204338251,0.07000916273191378,0.03788882012324617,0.9967616476002172,0.018015198409557343,0.017578406259417534,0.007903654128313065,-0.0021603433415293694,0.0033077646512538195,-0.005909154657274485,0.017578406259417534,0.0636436939239502,0.013218633830547333,-0.0053907521069049835,0.005418760236352682,-0.019609883427619934,0.007903656922280788,0.013218633830547333,0.1267288476228714,-0.004663047380745411,0.04553737863898277,-0.00286099617369473,-0.002160343574360013,-0.005390751641243696,-0.004663047846406698,0.0034035330172628164,-0.0021130661480128765,0.0013907145475968719,0.0033077639527618885,0.005418760702013969,0.045537371188402176,-0.002113065915182233,0.017049841582775116,-0.001212881412357092,-0.005909154657274485,-0.019609879702329636,-0.00286099617369473,0.0013907146640121937,-0.0012128815287724137,0.006352564319968224,0.0,0.0,0.0,0.0,0.0,0.0,0.0,0.0,0.0,0.0,0.0,0.0,0.0,0.0,0.0,0.0,0.0,0.0,0.0,0.0,0.0,0.0,0.0,0.0,0.0,0.0,0.0,0.0,0.0,0.0,0.0,0.0,0.0,0.0,0.0,0.0,0.0,0.0,0.0,0.0,0.0,0.0
1738186813434428503,34,1738186813427453924,odom,base_link,0.00900121310497777,-0.018669641083662758,-0.08713565637956912,-0.01415792210356121,0.07753173730692264,0.043729893526800005,0.9959297562398746,0.021182414144277573,0.020811891183257103,0.00948437862098217,-0.0024996569845825434,0.004034055396914482,-0.007028177380561829,0.020811891183257103,0.07656502723693848,0.016686227172613144,-0.006445544306188822,0.0069333892315626144,-0.023509355261921883,0.009484381414949894,0.016686225309967995,0.1298690289258957,-0.0047432356514036655,0.0461961105465889,-0.003973059356212616,-0.0024996569845825434,-0.0064455438405275345,-0.0047432356514036655,0.0038923572283238173,-0.002299649640917778,0.0016552455490455031,0.004034055862575769,0.0069333892315626144,0.0461961068212986,-0.002299649640917778,0.017166003584861755,-0.0016917206812649965,-0.007028176914900541,-0.02350936271250248,-0.003973059821873903,0.0016552455490455031,-0.0016917205648496747,0.007558549288660288,0.0,0.0,0.0,0.0,0.0,0.0,0.0,0.0,0.0,0.0,0.0,0.0,0.0,0.0,0.0,0.0,0.0,0.0,0.0,0.0,0.0,0.0,0.0,0.0,0.0,0.0,0.0,0.0,0.0,0.0,0.0,0.0,0.0,0.0,0.0,0.0,0.0,0.0,0.0,0.0,0.0,0.0
1738186813479388892,35,1738186813471902279,odom,base_link,0.011406711116689344,-0.017777255946933274,-0.08987206290852279,-0.015843704883407576,0.08241108616753506,0.04666303510368166,0.9953793000897541,0.02282349392771721,0.02196374721825123,0.012348497286438942,-0.003034148132428527,0.0053087035194039345,-0.0076283845119178295,0.02196374721825123,0.07311370968818665,0.01788007840514183,-0.007062912918627262,0.007717207074165344,-0.02272961102426052,0.012348496355116367,0.01788008026778698,0.1111283004283905,-0.0036905910819768906,0.03972768783569336,-0.004639926832169294,-0.0030341483652591705,-0.007062914315611124,-0.003690590849146247,0.0040249451994895935,-0.0020429512951523066,0.0018551175016909838,0.0053087035194039345,0.00771720614284277,0.03972768783569336,-0.0020429512951523066,0.014979933388531208,-0.0020428344141691923,-0.0076283845119178295,-0.02272961288690567,-0.00463992590084672,0.0018551175016909838,-0.002042834646999836,0.007429103367030621,0.0,0.0,0.0,0.0,0.0,0.0,0.0,0.0,0.0,0.0,0.0,0.0,0.0,0.0,0.0,0.0,0.0,0.0,0.0,0.0,0.0,0.0,0.0,0.0,0.0,0.0,0.0,0.0,0.0,0.0,0.0,0.0,0.0,0.0,0.0,0.0,0.0,0.0,0.0,0.0,0.0,0.0
1738186813569880660,36,1738186813543139217,odom,base_link,0.01059259210544426,-0.02074523368903132,-0.09456857619347493,-0.01653056911518036,0.08910807055733534,0.05057997586945221,0.9945994963236832,0.022606447339057922,0.020303698256611824,0.01188240572810173,-0.0031496218871325254,0.005207889713346958,-0.006896160542964935,0.020303698256611824,0.07247962057590485,0.017236072570085526,-0.0074853249825537205,0.007461751811206341,-0.022479455918073654,0.011882406659424305,0.017236072570085526,0.12358798831701279,-0.004132747650146484,0.0441129244863987,-0.004265661351382732,-0.0031496218871325254,-0.0074853249825537205,-0.004132747184485197,0.004235384985804558,-0.002141619799658656,0.0019435447175055742,0.0052078901790082455,0.0074617513455450535,0.0441129207611084,-0.002141619799658656,0.016501152887940407,-0.0019034193828701973,-0.006896161008626223,-0.022479457780718803,-0.004265661351382732,0.0019435447175055742,-0.001903419615700841,0.007334026042371988,0.0,0.0,0.0,0.0,0.0,0.0,0.0,0.0,0.0,0.0,0.0,0.0,0.0,0.0,0.0,0.0,0.0,0.0,0.0,0.0,0.0,0.0,0.0,0.0,0.0,0.0,0.0,0.0,0.0,0.0,0.0,0.0,0.0,0.0,0.0,0.0,0.0,0.0,0.0,0.0,0.0,0.0
1738186813613117542,37,1738186813606193360,odom,base_link,0.0045265402033707715,-0.026008876518916448,-0.10844686054774968,-0.018041343912582376,0.09622837121829966,0.05417532608580015,0.9937201037143204,0.028377415612339973,0.024304071441292763,0.013754514046013355,-0.004313104785978794,0.006128957029432058,-0.008309277705848217,0.024304073303937912,0.0888858214020729,0.03045331872999668,-0.011227522045373917,0.012791316956281662,-0.02795308642089367,0.013754512183368206,0.03045331872999668,0.16374018788337708,-0.007478658109903336,0.05958529934287071,-0.008415233343839645,-0.004313104320317507,-0.011227522045373917,-0.007478657644242048,0.006043578963726759,-0.003482087282463908,0.003033725079149008,0.00612895842641592,0.012791316024959087,0.05958530306816101,-0.0034820870496332645,0.022597914561629295,-0.0035861684009432793,-0.008309279568493366,-0.02795308269560337,-0.00841523241251707,0.003033725544810295,-0.0035861681681126356,0.009233006276190281,0.0,0.0,0.0,0.0,0.0,0.0,0.0,0.0,0.0,0.0,0.0,0.0,0.0,0.0,0.0,0.0,0.0,0.0,0.0,0.0,0.0,0.0,0.0,0.0,0.0,0.0,0.0,0.0,0.0,0.0,0.0,0.0,0.0,0.0,0.0,0.0,0.0,0.0,0.0,0.0,0.0,0.0
1738186813683059454,38,1738186813675976582,odom,base_link,0.00034658631874170086,-0.02951099842198334,-0.11615260384431045,-0.020044066575589232,0.10530081102576075,0.05679540910087081,0.9926148578867318,0.003907241392880678,0.0010186340659856796,0.00037903827615082264,-0.000659713230561465,0.0007986515993252397,-0.000550182128790766,0.0010186339495703578,0.007616951130330563,0.0019271804485470057,-0.0023569785989820957,0.0013441183837130666,-0.0023425316903740168,0.0003790385089814663,0.0019271804485470057,0.012726596556603909,-1.0794110494316556e-05,0.005238797049969435,-0.0004483260272536427,-0.000659713230561465,-0.0023569785989820957,-1.0794011359394062e-05,0.0018941197777166963,-0.0004548376891762018,0.000487137702293694,0.0007986514829099178,0.0013441183837130666,0.005238797049969435,-0.00045483760186471045,0.002630317583680153,-0.00033046852331608534,-0.0005501820123754442,-0.0023425316903740168,-0.0004483259981498122,0.00048713776050135493,-0.0003304685524199158,0.0009321965044364333,0.0,0.0,0.0,0.0,0.0,0.0,0.0,0.0,0.0,0.0,0.0,0.0,0.0,0.0,0.0,0.0,0.0,0.0,0.0,0.0,0.0,0.0,0.0,0.0,0.0,0.0,0.0,0.0,0.0,0.0,0.0,0.0,0.0,0.0,0.0,0.0,0.0,0.0,0.0,0.0,0.0,0.0
1738186813760786927,39,1738186813746068585,odom,base_link,-0.003641549883377308,-0.033215920251634334,-0.12012094598011326,-0.021991877325054063,0.11314477564497163,0.06041148319824939,0.9914963791026965,0.0029365424998104572,0.0005808835849165916,0.0002913515781983733,-0.0005014600465074182,0.0007314744289033115,-0.00040873809484764934,0.0005808835849165916,0.006041239481419325,0.0018666012911126018,-0.001982626970857382,0.0013163433177396655,-0.0018123971531167626,0.00029135175282135606,0.0018666012911126018,0.008912836201488972,8.014592458494008e-05,0.003834919072687626,-0.0004691668145824224,-0.0005014599300920963,-0.0019826272036880255,8.014601917238906e-05,0.0015703795943409204,-0.0004093478783033788,0.0003856849216390401,0.0007314744289033115,0.0013163430849090219,0.0038349186070263386,-0.0004093478783033788,0.002087443368509412,-0.0003325173747725785,-0.0004087381239514798,-0.0018123973859474063,-0.00046916675637476146,0.00038568489253520966,-0.0003325173747725785,0.0007375346613116562,0.0,0.0,0.0,0.0,0.0,0.0,0.0,0.0,0.0,0.0,0.0,0.0,0.0,0.0,0.0,0.0,0.0,0.0,0.0,0.0,0.0,0.0,0.0,0.0,0.0,0.0,0.0,0.0,0.0,0.0,0.0,0.0,0.0,0.0,0.0,0.0,0.0,0.0,0.0,0.0,0.0,0.0
1738186813813960195,40,1738186813808561462,odom,base_link,-0.009015970741977835,-0.03746226687229769,-0.12614031458111533,-0.024545552221477945,0.11896367434553219,0.062433494148755674,0.9906297082465939,0.0031262896955013275,0.0007358366274274886,-0.0001948223216459155,-0.0006346022128127515,0.0005883456324227154,-0.0004606704169418663,0.0007358368020504713,0.00489570340141654,0.0011328227119520307,-0.001894178451038897,0.0010487157851457596,-0.0014459738740697503,-0.0001948223216459155,0.0011328223627060652,0.007892360910773277,0.00010498124174773693,0.003345662960782647,-0.00020777898316737264,-0.0006346021546050906,-0.001894178451038897,0.00010498121264390647,0.0016883122734725475,-0.0004706159234046936,0.00033712273580022156,0.0005883455160073936,0.0010487159015610814,0.0033456634264439344,-0.00047061595250852406,0.001891391002573073,-0.00023130707268137485,-0.00046067044604569674,-0.0014459738740697503,-0.0002077790122712031,0.000337122764904052,-0.0002313070435775444,0.0006276498315855861,0.0,0.0,0.0,0.0,0.0,0.0,0.0,0.0,0.0,0.0,0.0,0.0,0.0,0.0,0.0,0.0,0.0,0.0,0.0,0.0,0.0,0.0,0.0,0.0,0.0,0.0,0.0,0.0,0.0,0.0,0.0,0.0,0.0,0.0,0.0,0.0,0.0,0.0,0.0,0.0,0.0,0.0
1738186813887108445,41,1738186813881822006,odom,base_link,-0.014741096706790103,-0.04362750561522037,-0.13322137078609084,-0.029669089614110092,0.12692623947421036,0.06313260781378757,0.9894562894261866,0.003209898015484214,0.000708750740159303,0.0003748038725461811,-0.0004923666128888726,0.0007827617228031158,-0.00044504061224870384,0.0007087505655363202,0.006397855468094349,0.0018708851421251893,-0.0020945535507053137,0.0013432515552267432,-0.001971886260434985,0.0003748040762729943,0.0018708852585405111,0.009645394049584866,-5.0856669986387715e-06,0.0042232973501086235,-0.0005012740148231387,-0.0004923665546812117,-0.0020945535507053137,-5.085674274596386e-06,0.0016871251864358783,-0.00045486315502785146,0.0003955247811973095,0.0007827614899724722,0.0013432515552267432,0.004223296884447336,-0.00045486315502785146,0.002306615700945258,-0.00035042347735725343,-0.0004450405831448734,-0.001971886260434985,-0.0005012739566154778,0.00039552481030113995,-0.0003504235064610839,0.0008251816034317017,0.0,0.0,0.0,0.0,0.0,0.0,0.0,0.0,0.0,0.0,0.0,0.0,0.0,0.0,0.0,0.0,0.0,0.0,0.0,0.0,0.0,0.0,0.0,0.0,0.0,0.0,0.0,0.0,0.0,0.0,0.0,0.0,0.0,0.0,0.0,0.0,0.0,0.0,0.0,0.0,0.0,0.0
1738186813951891503,42,1738186813943450045,odom,base_link,-0.01864313235815203,-0.045118412864734975,-0.13779917263500202,-0.03264254728623412,0.13318346484833657,0.06288029329221312,0.9885558646394976,0.0031639065127819777,0.0007671767962165177,0.0005282183992676437,-0.0005334955058060586,0.0008643291657790542,-0.0004601334221661091,0.0007671768544241786,0.006263092625886202,0.0019273909274488688,-0.0020693752449005842,0.0014185813488438725,-0.0018910436192527413,0.0005282179918140173,0.0019273909274488688,0.009400129318237305,3.928960268240189e-06,0.004154533613473177,-0.000514183659106493,-0.0005334955058060586,-0.0020693750120699406,3.928882051695837e-06,0.0016998173668980598,-0.0004988760920241475,0.00036452009226195514,0.0008643291657790542,0.0014185813488438725,0.004154534079134464,-0.0004988761502318084,0.0023197259288281202,-0.000359811499947682,-0.00046013339306227863,-0.0018910435028374195,-0.0005141837173141539,0.00036452015046961606,-0.0003598115290515125,0.0007935846224427223,0.0,0.0,0.0,0.0,0.0,0.0,0.0,0.0,0.0,0.0,0.0,0.0,0.0,0.0,0.0,0.0,0.0,0.0,0.0,0.0,0.0,0.0,0.0,0.0,0.0,0.0,0.0,0.0,0.0,0.0,0.0,0.0,0.0,0.0,0.0,0.0,0.0,0.0,0.0,0.0,0.0,0.0
1738186814014304545,43,1738186814009062418,odom,base_link,-0.024305836522310473,-0.047176019618088996,-0.14507119795556578,-0.03529466580411093,0.14213789111069458,0.061937265815948314,0.9872764970258467,0.003821570659056306,0.0009807224851101637,0.00036673268186859787,-0.0006414081435650587,0.0008233545813709497,-0.0005393412429839373,0.0009807226015254855,0.006812796927988529,0.0023361050989478827,-0.002371322363615036,0.001672597136348486,-0.002012344542890787,0.00036673236172646284,0.002336104866117239,0.010889397002756596,-0.00037115023587830365,0.004726973362267017,-0.0006020909640938044,-0.0006414081435650587,-0.002371322363615036,-0.0003711502649821341,0.0019756967667490244,-0.000718399474862963,0.0004171024775132537,0.000823354406747967,0.0016725972527638078,0.004726973827928305,-0.0007183995330706239,0.002563009737059474,-0.000424244994064793,-0.0005393412429839373,-0.002012344542890787,-0.0006020909640938044,0.0004171023902017623,-0.0004242449067533016,0.0008263930212706327,0.0,0.0,0.0,0.0,0.0,0.0,0.0,0.0,0.0,0.0,0.0,0.0,0.0,0.0,0.0,0.0,0.0,0.0,0.0,0.0,0.0,0.0,0.0,0.0,0.0,0.0,0.0,0.0,0.0,0.0,0.0,0.0,0.0,0.0,0.0,0.0,0.0,0.0,0.0,0.0,0.0,0.0
1738186814087543561,44,1738186814081850405,odom,base_link,-0.03112259399198796,-0.04796145694015838,-0.15467399530787285,-0.037161758005073015,0.15367037844472511,0.05930680124791638,0.9856404627735051,0.004390857182443142,0.0009500351152382791,0.00024308721185661852,-0.0006930097006261349,0.0008574950625188649,-0.0006390278576873243,0.0009500349406152964,0.007875078357756138,0.002350667491555214,-0.002537548542022705,0.0017416951013728976,-0.0023428588174283504,0.0002430878084851429,0.0023506677243858576,0.010986767709255219,7.740072760498151e-05,0.004660041071474552,-0.000647304521407932,-0.0006930097006261349,-0.002537548542022705,7.740080036455765e-05,0.0020624406170099974,-0.0005805270047858357,0.0004602263798005879,0.0008574948878958821,0.001741694868542254,0.0046600415371358395,-0.0005805270047858357,0.002522373804822564,-0.00047015328891575336,-0.0006390277412720025,-0.0023428588174283504,-0.000647304579615593,0.00046022635069675744,-0.0004701533471234143,0.0009541120380163193,0.0,0.0,0.0,0.0,0.0,0.0,0.0,0.0,0.0,0.0,0.0,0.0,0.0,0.0,0.0,0.0,0.0,0.0,0.0,0.0,0.0,0.0,0.0,0.0,0.0,0.0,0.0,0.0,0.0,0.0,0.0,0.0,0.0,0.0,0.0,0.0,0.0,0.0,0.0,0.0,0.0,0.0
1738186814149043596,45,1738186814144924960,odom,base_link,-0.034304503373344966,-0.047025693661534355,-0.15906564337713727,-0.03721921561482149,0.1589753489659269,0.057692349035496734,0.9848924617809538,0.004384499508887529,0.0012466484913602471,0.0006603946094401181,-0.0007475041784346104,0.0010651560733094811,-0.0006703767576254904,0.001246648607775569,0.007682874798774719,0.0023587606847286224,-0.0025706999003887177,0.001823878614231944,-0.002267256611958146,0.0006603940273635089,0.002358760219067335,0.011661084368824959,-0.00028294569347053766,0.005161362234503031,-0.0006108519737608731,-0.0007475041784346104,-0.0025707001332193613,-0.0002829456643667072,0.0021842392161488533,-0.0007991122547537088,0.00041918756323866546,0.0010651560733094811,0.0018238783814013004,0.005161362700164318,-0.0007991123129613698,0.0028885635547339916,-0.00045374687761068344,-0.0006703768158331513,-0.0022672563791275024,-0.0006108519737608731,0.0004191876214463264,-0.00045374679029919207,0.0009428979828953743,0.0,0.0,0.0,0.0,0.0,0.0,0.0,0.0,0.0,0.0,0.0,0.0,0.0,0.0,0.0,0.0,0.0,0.0,0.0,0.0,0.0,0.0,0.0,0.0,0.0,0.0,0.0,0.0,0.0,0.0,0.0,0.0,0.0,0.0,0.0,0.0,0.0,0.0,0.0,0.0,0.0,0.0
1738186814215950790,46,1738186814209936863,odom,base_link,-0.03964647858360784,-0.04390318519273887,-0.16249630741915078,-0.03627036930256898,0.163256241746408,0.05636886521218417,0.9843040236005266,0.002501474693417549,0.0008500755066052079,0.0002305822417838499,-0.0006239136564545333,0.0007865215884521604,-0.00043414984247647226,0.000850075448397547,0.00390894990414381,0.0006258137873373926,-0.0018353849882259965,0.0008992883958853781,-0.0011228411458432674,0.0002305821981281042,0.0006258137873373926,0.005011518020182848,2.6240315492032096e-05,0.002290730830281973,-0.00013646314619109035,-0.0006239136564545333,-0.0018353848718106747,2.624030821607448e-05,0.0016571619780734181,-0.0005330759449861944,0.00028405815828591585,0.0007865215884521604,0.0008992883958853781,0.0022907305974513292,-0.0005330759449861944,0.0015487243654206395,-0.00021526063210330904,-0.00043414990068413317,-0.0011228411458432674,-0.00013646313163917512,0.0002840580709744245,-0.0002152606175513938,0.0005410799058154225,0.0,0.0,0.0,0.0,0.0,0.0,0.0,0.0,0.0,0.0,0.0,0.0,0.0,0.0,0.0,0.0,0.0,0.0,0.0,0.0,0.0,0.0,0.0,0.0,0.0,0.0,0.0,0.0,0.0,0.0,0.0,0.0,0.0,0.0,0.0,0.0,0.0,0.0,0.0,0.0,0.0,0.0
1738186814288006078,47,1738186814276638914,odom,base_link,-0.045627355464888664,-0.04026535802921286,-0.16518060421053862,-0.03510705483927255,0.16617613121728875,0.05610913586348608,0.9838723255518581,0.002641090424731374,0.000919862010050565,0.0003948007069993764,-0.0006351018091663718,0.0008607783238403499,-0.0004493074957281351,0.0009198620682582259,0.004327328409999609,0.0007500848150812089,-0.0019349779468029737,0.0009715795167721808,-0.00125282839871943,0.0003948007069993764,0.0007500848732888699,0.005801588762551546,-7.805454060871853e-07,0.0026573755312711,-0.00017698151350487024,-0.0006351018091663718,-0.0019349779468029737,-7.806093549334037e-07,0.0017057238146662712,-0.0005463790730573237,0.00030192467966116965,0.0008607783820480108,0.0009715792839415371,0.0026573755312711,-0.0005463790148496628,0.0017234187107533216,-0.00023413456801790744,-0.000449307553935796,-0.0012528285151347518,-0.000176981498952955,0.00030192473786883056,-0.00023413461167365313,0.0005890316679142416,0.0,0.0,0.0,0.0,0.0,0.0,0.0,0.0,0.0,0.0,0.0,0.0,0.0,0.0,0.0,0.0,0.0,0.0,0.0,0.0,0.0,0.0,0.0,0.0,0.0,0.0,0.0,0.0,0.0,0.0,0.0,0.0,0.0,0.0,0.0,0.0,0.0,0.0,0.0,0.0,0.0,0.0
1738186814373678098,48,1738186814347277714,odom,base_link,-0.049879777418260135,-0.03394073303462974,-0.16989432179314526,-0.0351844944162445,0.17011169760108907,0.05614311623325062,0.9831947987004257,0.0027832381892949343,0.0009734445484355092,0.00010230145562672988,-0.0007287078187800944,0.0008196523413062096,-0.0005086970049887896,0.000973444664850831,0.0039457520470023155,0.0003755254438146949,-0.001926903729327023,0.0008280928013846278,-0.0011332917492836714,0.00010230149928247556,0.00037552553112618625,0.0053464751690626144,0.0002838944783434272,0.0023777461610734463,-5.664249329129234e-05,-0.0007287077605724335,-0.001926903729327023,0.00028389442013576627,0.0017718919552862644,-0.00046499320887960494,0.0002923078427556902,0.0008196523413062096,0.0008280928013846278,0.0023777459282428026,-0.00046499326708726585,0.0015942605677992105,-0.00019187947327736765,-0.0005086970631964505,-0.0011332916328683496,-5.664248237735592e-05,0.0002923077845480293,-0.00019187948782928288,0.000567311595659703,0.0,0.0,0.0,0.0,0.0,0.0,0.0,0.0,0.0,0.0,0.0,0.0,0.0,0.0,0.0,0.0,0.0,0.0,0.0,0.0,0.0,0.0,0.0,0.0,0.0,0.0,0.0,0.0,0.0,0.0,0.0,0.0,0.0,0.0,0.0,0.0,0.0,0.0,0.0,0.0,0.0,0.0
1738186814421326840,49,1738186814413245381,odom,base_link,-0.053829206874403374,-0.029228266782119244,-0.17318320246669947,-0.034907339045715864,0.1752559812528078,0.057021309215501303,0.9822501662057457,0.0031307623721659184,0.001081265858374536,-0.00012597192835528404,-0.0009096485446207225,0.0008986790780909359,-0.0005594792892225087,0.0010812659747898579,0.003802061080932617,0.00021091906819492579,-0.002075156895443797,0.0008542814175598323,-0.0010675264056771994,-0.00012597178283613175,0.00021091900998726487,0.005278736352920532,0.00040441894088871777,0.0023382087238132954,1.319769216934219e-05,-0.0009096486610360444,-0.002075156895443797,0.00040441894088871777,0.0020572138018906116,-0.0005600982112810016,0.0002789599820971489,0.000898679019883275,0.0008542814175598323,0.0023382087238132954,-0.0005600982694886625,0.0016893986612558365,-0.00017146655591204762,-0.0005594792310148478,-0.0010675264056771994,1.3197653061070014e-05,0.0002789599820971489,-0.00017146655591204762,0.0005826252163387835,0.0,0.0,0.0,0.0,0.0,0.0,0.0,0.0,0.0,0.0,0.0,0.0,0.0,0.0,0.0,0.0,0.0,0.0,0.0,0.0,0.0,0.0,0.0,0.0,0.0,0.0,0.0,0.0,0.0,0.0,0.0,0.0,0.0,0.0,0.0,0.0,0.0,0.0,0.0,0.0,0.0,0.0
